{
"type": "FeatureCollection",
"crs": { "type": "name", "properties": { "name": "urn:ogc:def:crs:EPSG::4269" } },
"features": [
{ "type": "Feature", "properties": { "NAME": "Fargo", "POP_2010": 105549.0, "STATE": "ND" }, "geometry": { "type": "Point", "coordinates": [ -96.79, 46.88 ] } },
{ "type": "Feature", "properties": { "NAME": "Rochester", "POP_2010": 210565.0, "STATE": "NY" }, "geometry": { "type": "Point", "coordinates": [ -77.62, 43.15 ] } },
{ "type": "Feature", "properties": { "NAME": "Syracuse", "POP_2010": 145170.0, "STATE": "NY" }, "geometry": { "type": "Point", "coordinates": [ -76.15, 43.05 ] } },
{ "type": "Feature", "properties": { "NAME": "Buffalo", "POP_2010": 261310.0, "STATE": "NY" }, "geometry": { "type": "Point", "coordinates": [ -78.88, 42.89 ] } },
{ "type": "Feature", "properties": { "NAME": "Lowell", "POP_2010": 106519.0, "STATE": "MA" }, "geometry": { "type": "Point", "coordinates": [ -71.32, 42.63 ] } },
{ "type": "Feature", "properties": { "NAME": "Cambridge", "POP_2010": 105162.0, "STATE": "MA" }, "geometry": { "type": "Point", "coordinates": [ -71.11, 42.38 ] } },
{ "type": "Feature", "properties": { "NAME": "Worcester", "POP_2010": 181045.0, "STATE": "MA" }, "geometry": { "type": "Point", "coordinates": [ -71.8, 42.26 ] } },
{ "type": "Feature", "properties": { "NAME": "Boston", "POP_2010": 617594.0, "STATE": "MA" }, "geometry": { "type": "Point", "coordinates": [ -71.06, 42.36 ] } },
{ "type": "Feature", "properties": { "NAME": "Springfield", "POP_2010": 153060.0, "STATE": "MA" }, "geometry": { "type": "Point", "coordinates": [ -72.59, 42.1 ] } },
{ "type": "Feature", "properties": { "NAME": "Cedar Rapids", "POP_2010": 126326.0, "STATE": "IA" }, "geometry": { "type": "Point", "coordinates": [ -91.64, 42.01 ] } },
{ "type": "Feature", "properties": { "NAME": "Erie", "POP_2010": 101786.0, "STATE": "PA" }, "geometry": { "type": "Point", "coordinates": [ -80.09, 42.13 ] } },
{ "type": "Feature", "properties": { "NAME": "Chicago", "POP_2010": 2695598.0, "STATE": "IL" }, "geometry": { "type": "Point", "coordinates": [ -87.65, 41.85 ] } },
{ "type": "Feature", "properties": { "NAME": "Toledo", "POP_2010": 287208.0, "STATE": "OH" }, "geometry": { "type": "Point", "coordinates": [ -83.56, 41.66 ] } },
{ "type": "Feature", "properties": { "NAME": "Cleveland", "POP_2010": 396815.0, "STATE": "OH" }, "geometry": { "type": "Point", "coordinates": [ -81.7, 41.5 ] } },
{ "type": "Feature", "properties": { "NAME": "Philadelphia", "POP_2010": 1526006.0, "STATE": "PA" }, "geometry": { "type": "Point", "coordinates": [ -75.16, 39.95 ] } },
{ "type": "Feature", "properties": { "NAME": "Akron", "POP_2010": 199110.0, "STATE": "OH" }, "geometry": { "type": "Point", "coordinates": [ -81.52, 41.08 ] } },
{ "type": "Feature", "properties": { "NAME": "Paterson", "POP_2010": 146199.0, "STATE": "NJ" }, "geometry": { "type": "Point", "coordinates": [ -74.17, 40.92 ] } },
{ "type": "Feature", "properties": { "NAME": "Allentown", "POP_2010": 118032.0, "STATE": "PA" }, "geometry": { "type": "Point", "coordinates": [ -75.49, 40.61 ] } },
{ "type": "Feature", "properties": { "NAME": "Pittsburgh", "POP_2010": 305704.0, "STATE": "PA" }, "geometry": { "type": "Point", "coordinates": [ -80.0, 40.44 ] } },
{ "type": "Feature", "properties": { "NAME": "Baltimore", "POP_2010": 620961.0, "STATE": "MD" }, "geometry": { "type": "Point", "coordinates": [ -76.61, 39.29 ] } },
{ "type": "Feature", "properties": { "NAME": "Topeka", "POP_2010": 127473.0, "STATE": "KS" }, "geometry": { "type": "Point", "coordinates": [ -95.68, 39.05 ] } },
{ "type": "Feature", "properties": { "NAME": "Kansas City", "POP_2010": 145786.0, "STATE": "KS" }, "geometry": { "type": "Point", "coordinates": [ -94.63, 39.11 ] } },
{ "type": "Feature", "properties": { "NAME": "Saint Louis", "POP_2010": 319294.0, "STATE": "MO" }, "geometry": { "type": "Point", "coordinates": [ -90.2, 38.63 ] } },
{ "type": "Feature", "properties": { "NAME": "Wichita", "POP_2010": 382368.0, "STATE": "KS" }, "geometry": { "type": "Point", "coordinates": [ -97.34, 37.69 ] } },
{ "type": "Feature", "properties": { "NAME": "Richmond", "POP_2010": 204214.0, "STATE": "VA" }, "geometry": { "type": "Point", "coordinates": [ -77.46, 37.55 ] } },
{ "type": "Feature", "properties": { "NAME": "New Orleans", "POP_2010": 343829.0, "STATE": "LA" }, "geometry": { "type": "Point", "coordinates": [ -90.08, 29.95 ] } },
{ "type": "Feature", "properties": { "NAME": "Green Bay", "POP_2010": 104057.0, "STATE": "WI" }, "geometry": { "type": "Point", "coordinates": [ -88.02, 44.52 ] } },
{ "type": "Feature", "properties": { "NAME": "Warren", "POP_2010": 134056.0, "STATE": "MI" }, "geometry": { "type": "Point", "coordinates": [ -83.01, 42.5 ] } },
{ "type": "Feature", "properties": { "NAME": "Sioux Falls", "POP_2010": 153888.0, "STATE": "SD" }, "geometry": { "type": "Point", "coordinates": [ -96.7, 43.55 ] } },
{ "type": "Feature", "properties": { "NAME": "Newark", "POP_2010": 277140.0, "STATE": "NJ" }, "geometry": { "type": "Point", "coordinates": [ -74.17, 40.74 ] } },
{ "type": "Feature", "properties": { "NAME": "Madison", "POP_2010": 233209.0, "STATE": "WI" }, "geometry": { "type": "Point", "coordinates": [ -89.4, 43.07 ] } },
{ "type": "Feature", "properties": { "NAME": "Grand Rapids", "POP_2010": 188040.0, "STATE": "MI" }, "geometry": { "type": "Point", "coordinates": [ -85.67, 42.96 ] } },
{ "type": "Feature", "properties": { "NAME": "Flint", "POP_2010": 102434.0, "STATE": "MI" }, "geometry": { "type": "Point", "coordinates": [ -83.69, 43.01 ] } },
{ "type": "Feature", "properties": { "NAME": "Manchester", "POP_2010": 109565.0, "STATE": "NH" }, "geometry": { "type": "Point", "coordinates": [ -71.45, 43.0 ] } },
{ "type": "Feature", "properties": { "NAME": "Milwaukee", "POP_2010": 594833.0, "STATE": "WI" }, "geometry": { "type": "Point", "coordinates": [ -87.91, 43.04 ] } },
{ "type": "Feature", "properties": { "NAME": "Sterling Heights", "POP_2010": 129699.0, "STATE": "MI" }, "geometry": { "type": "Point", "coordinates": [ -83.03, 42.58 ] } },
{ "type": "Feature", "properties": { "NAME": "Lansing", "POP_2010": 114297.0, "STATE": "MI" }, "geometry": { "type": "Point", "coordinates": [ -84.56, 42.73 ] } },
{ "type": "Feature", "properties": { "NAME": "Ann Arbor", "POP_2010": 113934.0, "STATE": "MI" }, "geometry": { "type": "Point", "coordinates": [ -83.73, 42.27 ] } },
{ "type": "Feature", "properties": { "NAME": "Providence", "POP_2010": 178042.0, "STATE": "RI" }, "geometry": { "type": "Point", "coordinates": [ -71.41, 41.82 ] } },
{ "type": "Feature", "properties": { "NAME": "Yonkers", "POP_2010": 195976.0, "STATE": "NY" }, "geometry": { "type": "Point", "coordinates": [ -73.9, 40.93 ] } },
{ "type": "Feature", "properties": { "NAME": "Jersey City", "POP_2010": 247597.0, "STATE": "NJ" }, "geometry": { "type": "Point", "coordinates": [ -74.08, 40.73 ] } },
{ "type": "Feature", "properties": { "NAME": "Elizabeth", "POP_2010": 124969.0, "STATE": "NJ" }, "geometry": { "type": "Point", "coordinates": [ -74.21, 40.66 ] } },
{ "type": "Feature", "properties": { "NAME": "Columbus", "POP_2010": 787033.0, "STATE": "OH" }, "geometry": { "type": "Point", "coordinates": [ -83.0, 39.96 ] } },
{ "type": "Feature", "properties": { "NAME": "Cincinnati", "POP_2010": 296943.0, "STATE": "OH" }, "geometry": { "type": "Point", "coordinates": [ -84.53, 39.11 ] } },
{ "type": "Feature", "properties": { "NAME": "Olathe", "POP_2010": 125872.0, "STATE": "KS" }, "geometry": { "type": "Point", "coordinates": [ -94.82, 38.88 ] } },
{ "type": "Feature", "properties": { "NAME": "Overland Park", "POP_2010": 173372.0, "STATE": "KS" }, "geometry": { "type": "Point", "coordinates": [ -94.67, 38.98 ] } },
{ "type": "Feature", "properties": { "NAME": "Alexandria", "POP_2010": 139966.0, "STATE": "VA" }, "geometry": { "type": "Point", "coordinates": [ -77.05, 38.8 ] } },
{ "type": "Feature", "properties": { "NAME": "Newport News", "POP_2010": 180719.0, "STATE": "VA" }, "geometry": { "type": "Point", "coordinates": [ -76.43, 36.98 ] } },
{ "type": "Feature", "properties": { "NAME": "Hampton", "POP_2010": 137436.0, "STATE": "VA" }, "geometry": { "type": "Point", "coordinates": [ -76.35, 37.03 ] } },
{ "type": "Feature", "properties": { "NAME": "Norfolk", "POP_2010": 242803.0, "STATE": "VA" }, "geometry": { "type": "Point", "coordinates": [ -76.29, 36.85 ] } },
{ "type": "Feature", "properties": { "NAME": "Virginia Beach", "POP_2010": 437994.0, "STATE": "VA" }, "geometry": { "type": "Point", "coordinates": [ -75.98, 36.85 ] } },
{ "type": "Feature", "properties": { "NAME": "Chesapeake", "POP_2010": 222209.0, "STATE": "VA" }, "geometry": { "type": "Point", "coordinates": [ -76.27, 36.82 ] } },
{ "type": "Feature", "properties": { "NAME": "Detroit", "POP_2010": 713777.0, "STATE": "MI" }, "geometry": { "type": "Point", "coordinates": [ -83.05, 42.33 ] } },
{ "type": "Feature", "properties": { "NAME": "Hartford", "POP_2010": 124775.0, "STATE": "CT" }, "geometry": { "type": "Point", "coordinates": [ -72.69, 41.76 ] } },
{ "type": "Feature", "properties": { "NAME": "Bridgeport", "POP_2010": 144229.0, "STATE": "CT" }, "geometry": { "type": "Point", "coordinates": [ -73.2, 41.17 ] } },
{ "type": "Feature", "properties": { "NAME": "Stamford", "POP_2010": 122643.0, "STATE": "CT" }, "geometry": { "type": "Point", "coordinates": [ -73.54, 41.05 ] } },
{ "type": "Feature", "properties": { "NAME": "New Haven", "POP_2010": 129779.0, "STATE": "CT" }, "geometry": { "type": "Point", "coordinates": [ -72.93, 41.31 ] } },
{ "type": "Feature", "properties": { "NAME": "Waterbury", "POP_2010": 110366.0, "STATE": "CT" }, "geometry": { "type": "Point", "coordinates": [ -73.05, 41.56 ] } },
{ "type": "Feature", "properties": { "NAME": "Washington", "POP_2010": 601723.0, "STATE": "DC" }, "geometry": { "type": "Point", "coordinates": [ -77.04, 38.9 ] } },
{ "type": "Feature", "properties": { "NAME": "Arlington", "POP_2010": 207627.0, "STATE": "VA" }, "geometry": { "type": "Point", "coordinates": [ -77.08, 38.89 ] } },
{ "type": "Feature", "properties": { "NAME": "Aurora", "POP_2010": 197899.0, "STATE": "IL" }, "geometry": { "type": "Point", "coordinates": [ -88.32, 41.76 ] } },
{ "type": "Feature", "properties": { "NAME": "Des Moines", "POP_2010": 203433.0, "STATE": "IA" }, "geometry": { "type": "Point", "coordinates": [ -93.61, 41.6 ] } },
{ "type": "Feature", "properties": { "NAME": "Columbia", "POP_2010": 108500.0, "STATE": "MO" }, "geometry": { "type": "Point", "coordinates": [ -92.33, 38.95 ] } },
{ "type": "Feature", "properties": { "NAME": "Minneapolis", "POP_2010": 382578.0, "STATE": "MN" }, "geometry": { "type": "Point", "coordinates": [ -93.26, 44.98 ] } },
{ "type": "Feature", "properties": { "NAME": "Elgin", "POP_2010": 108188.0, "STATE": "IL" }, "geometry": { "type": "Point", "coordinates": [ -88.28, 42.04 ] } },
{ "type": "Feature", "properties": { "NAME": "Naperville", "POP_2010": 141853.0, "STATE": "IL" }, "geometry": { "type": "Point", "coordinates": [ -88.15, 41.79 ] } },
{ "type": "Feature", "properties": { "NAME": "Joliet", "POP_2010": 147433.0, "STATE": "IL" }, "geometry": { "type": "Point", "coordinates": [ -88.08, 41.53 ] } },
{ "type": "Feature", "properties": { "NAME": "Fort Wayne", "POP_2010": 253691.0, "STATE": "IN" }, "geometry": { "type": "Point", "coordinates": [ -85.13, 41.13 ] } },
{ "type": "Feature", "properties": { "NAME": "New York", "POP_2010": 8175133.0, "STATE": "NY" }, "geometry": { "type": "Point", "coordinates": [ -73.98, 40.76 ] } },
{ "type": "Feature", "properties": { "NAME": "Independence", "POP_2010": 116830.0, "STATE": "MO" }, "geometry": { "type": "Point", "coordinates": [ -94.42, 39.09 ] } },
{ "type": "Feature", "properties": { "NAME": "Kansas City", "POP_2010": 459787.0, "STATE": "MO" }, "geometry": { "type": "Point", "coordinates": [ -94.58, 39.1 ] } },
{ "type": "Feature", "properties": { "NAME": "Evansville", "POP_2010": 117429.0, "STATE": "IN" }, "geometry": { "type": "Point", "coordinates": [ -87.56, 37.97 ] } },
{ "type": "Feature", "properties": { "NAME": "Saint Paul", "POP_2010": 285068.0, "STATE": "MN" }, "geometry": { "type": "Point", "coordinates": [ -93.09, 44.94 ] } },
{ "type": "Feature", "properties": { "NAME": "Rochester", "POP_2010": 106769.0, "STATE": "MN" }, "geometry": { "type": "Point", "coordinates": [ -92.47, 44.02 ] } },
{ "type": "Feature", "properties": { "NAME": "Rockford", "POP_2010": 152871.0, "STATE": "IL" }, "geometry": { "type": "Point", "coordinates": [ -89.09, 42.27 ] } },
{ "type": "Feature", "properties": { "NAME": "South Bend", "POP_2010": 101168.0, "STATE": "IN" }, "geometry": { "type": "Point", "coordinates": [ -86.25, 41.68 ] } },
{ "type": "Feature", "properties": { "NAME": "Omaha", "POP_2010": 408958.0, "STATE": "NE" }, "geometry": { "type": "Point", "coordinates": [ -95.94, 41.26 ] } },
{ "type": "Feature", "properties": { "NAME": "Lincoln", "POP_2010": 258379.0, "STATE": "NE" }, "geometry": { "type": "Point", "coordinates": [ -96.67, 40.8 ] } },
{ "type": "Feature", "properties": { "NAME": "Peoria", "POP_2010": 115007.0, "STATE": "IL" }, "geometry": { "type": "Point", "coordinates": [ -89.59, 40.69 ] } },
{ "type": "Feature", "properties": { "NAME": "Springfield", "POP_2010": 116250.0, "STATE": "IL" }, "geometry": { "type": "Point", "coordinates": [ -89.64, 39.8 ] } },
{ "type": "Feature", "properties": { "NAME": "Springfield", "POP_2010": 159498.0, "STATE": "MO" }, "geometry": { "type": "Point", "coordinates": [ -93.3, 37.22 ] } },
{ "type": "Feature", "properties": { "NAME": "Greensboro", "POP_2010": 269666.0, "STATE": "NC" }, "geometry": { "type": "Point", "coordinates": [ -79.79, 36.07 ] } },
{ "type": "Feature", "properties": { "NAME": "Durham", "POP_2010": 228330.0, "STATE": "NC" }, "geometry": { "type": "Point", "coordinates": [ -78.9, 35.99 ] } },
{ "type": "Feature", "properties": { "NAME": "Fayetteville", "POP_2010": 200564.0, "STATE": "NC" }, "geometry": { "type": "Point", "coordinates": [ -78.88, 35.05 ] } },
{ "type": "Feature", "properties": { "NAME": "Atlanta", "POP_2010": 420003.0, "STATE": "GA" }, "geometry": { "type": "Point", "coordinates": [ -84.39, 33.75 ] } },
{ "type": "Feature", "properties": { "NAME": "Birmingham", "POP_2010": 212237.0, "STATE": "AL" }, "geometry": { "type": "Point", "coordinates": [ -86.8, 33.52 ] } },
{ "type": "Feature", "properties": { "NAME": "Baton Rouge", "POP_2010": 229493.0, "STATE": "LA" }, "geometry": { "type": "Point", "coordinates": [ -91.15, 30.45 ] } },
{ "type": "Feature", "properties": { "NAME": "Metairie", "POP_2010": 138481.0, "STATE": "LA" }, "geometry": { "type": "Point", "coordinates": [ -90.15, 29.98 ] } },
{ "type": "Feature", "properties": { "NAME": "Gainesville", "POP_2010": 124354.0, "STATE": "FL" }, "geometry": { "type": "Point", "coordinates": [ -82.32, 29.65 ] } },
{ "type": "Feature", "properties": { "NAME": "Brandon", "POP_2010": 103483.0, "STATE": "FL" }, "geometry": { "type": "Point", "coordinates": [ -82.29, 27.94 ] } },
{ "type": "Feature", "properties": { "NAME": "Fort Lauderdale", "POP_2010": 165521.0, "STATE": "FL" }, "geometry": { "type": "Point", "coordinates": [ -80.14, 26.12 ] } },
{ "type": "Feature", "properties": { "NAME": "Clarksville", "POP_2010": 132929.0, "STATE": "TN" }, "geometry": { "type": "Point", "coordinates": [ -87.36, 36.53 ] } },
{ "type": "Feature", "properties": { "NAME": "High Point", "POP_2010": 104371.0, "STATE": "NC" }, "geometry": { "type": "Point", "coordinates": [ -80.01, 35.96 ] } },
{ "type": "Feature", "properties": { "NAME": "Knoxville", "POP_2010": 178874.0, "STATE": "TN" }, "geometry": { "type": "Point", "coordinates": [ -83.92, 35.96 ] } },
{ "type": "Feature", "properties": { "NAME": "Murfreesboro", "POP_2010": 108755.0, "STATE": "TN" }, "geometry": { "type": "Point", "coordinates": [ -86.39, 35.85 ] } },
{ "type": "Feature", "properties": { "NAME": "Raleigh", "POP_2010": 403892.0, "STATE": "NC" }, "geometry": { "type": "Point", "coordinates": [ -78.64, 35.77 ] } },
{ "type": "Feature", "properties": { "NAME": "Charlotte", "POP_2010": 731424.0, "STATE": "NC" }, "geometry": { "type": "Point", "coordinates": [ -80.84, 35.23 ] } },
{ "type": "Feature", "properties": { "NAME": "Chattanooga", "POP_2010": 167674.0, "STATE": "TN" }, "geometry": { "type": "Point", "coordinates": [ -85.31, 35.05 ] } },
{ "type": "Feature", "properties": { "NAME": "Huntsville", "POP_2010": 180105.0, "STATE": "AL" }, "geometry": { "type": "Point", "coordinates": [ -86.59, 34.73 ] } },
{ "type": "Feature", "properties": { "NAME": "Columbia", "POP_2010": 129272.0, "STATE": "SC" }, "geometry": { "type": "Point", "coordinates": [ -81.03, 34.0 ] } },
{ "type": "Feature", "properties": { "NAME": "Columbus", "POP_2010": 189885.0, "STATE": "GA" }, "geometry": { "type": "Point", "coordinates": [ -84.99, 32.46 ] } },
{ "type": "Feature", "properties": { "NAME": "Jackson", "POP_2010": 173514.0, "STATE": "MS" }, "geometry": { "type": "Point", "coordinates": [ -90.18, 32.3 ] } },
{ "type": "Feature", "properties": { "NAME": "Montgomery", "POP_2010": 205764.0, "STATE": "AL" }, "geometry": { "type": "Point", "coordinates": [ -86.3, 32.37 ] } },
{ "type": "Feature", "properties": { "NAME": "Mobile", "POP_2010": 195111.0, "STATE": "AL" }, "geometry": { "type": "Point", "coordinates": [ -88.04, 30.69 ] } },
{ "type": "Feature", "properties": { "NAME": "Jacksonville", "POP_2010": 821784.0, "STATE": "FL" }, "geometry": { "type": "Point", "coordinates": [ -81.66, 30.33 ] } },
{ "type": "Feature", "properties": { "NAME": "Lafayette", "POP_2010": 120623.0, "STATE": "LA" }, "geometry": { "type": "Point", "coordinates": [ -92.02, 30.22 ] } },
{ "type": "Feature", "properties": { "NAME": "Palm Bay", "POP_2010": 103190.0, "STATE": "FL" }, "geometry": { "type": "Point", "coordinates": [ -80.59, 28.03 ] } },
{ "type": "Feature", "properties": { "NAME": "Orlando", "POP_2010": 238300.0, "STATE": "FL" }, "geometry": { "type": "Point", "coordinates": [ -81.38, 28.54 ] } },
{ "type": "Feature", "properties": { "NAME": "Clearwater", "POP_2010": 107685.0, "STATE": "FL" }, "geometry": { "type": "Point", "coordinates": [ -82.8, 27.97 ] } },
{ "type": "Feature", "properties": { "NAME": "Port Saint Lucie", "POP_2010": 164603.0, "STATE": "FL" }, "geometry": { "type": "Point", "coordinates": [ -80.35, 27.29 ] } },
{ "type": "Feature", "properties": { "NAME": "Cape Coral", "POP_2010": 154305.0, "STATE": "FL" }, "geometry": { "type": "Point", "coordinates": [ -81.95, 26.56 ] } },
{ "type": "Feature", "properties": { "NAME": "Coral Springs", "POP_2010": 121096.0, "STATE": "FL" }, "geometry": { "type": "Point", "coordinates": [ -80.27, 26.27 ] } },
{ "type": "Feature", "properties": { "NAME": "Miramar", "POP_2010": 122041.0, "STATE": "FL" }, "geometry": { "type": "Point", "coordinates": [ -80.23, 25.99 ] } },
{ "type": "Feature", "properties": { "NAME": "Pembroke Pines", "POP_2010": 154750.0, "STATE": "FL" }, "geometry": { "type": "Point", "coordinates": [ -80.22, 26.0 ] } },
{ "type": "Feature", "properties": { "NAME": "Hollywood", "POP_2010": 140768.0, "STATE": "FL" }, "geometry": { "type": "Point", "coordinates": [ -80.15, 26.01 ] } },
{ "type": "Feature", "properties": { "NAME": "Miami", "POP_2010": 399457.0, "STATE": "FL" }, "geometry": { "type": "Point", "coordinates": [ -80.19, 25.77 ] } },
{ "type": "Feature", "properties": { "NAME": "Miami Gardens", "POP_2010": 107167.0, "STATE": "FL" }, "geometry": { "type": "Point", "coordinates": [ -80.25, 25.94 ] } },
{ "type": "Feature", "properties": { "NAME": "Hialeah", "POP_2010": 224669.0, "STATE": "FL" }, "geometry": { "type": "Point", "coordinates": [ -80.28, 25.86 ] } },
{ "type": "Feature", "properties": { "NAME": "Charleston", "POP_2010": 120083.0, "STATE": "SC" }, "geometry": { "type": "Point", "coordinates": [ -79.93, 32.78 ] } },
{ "type": "Feature", "properties": { "NAME": "Lexington", "POP_2010": 295803.0, "STATE": "KY" }, "geometry": { "type": "Point", "coordinates": [ -84.46, 38.05 ] } },
{ "type": "Feature", "properties": { "NAME": "Winston-Salem", "POP_2010": 229617.0, "STATE": "NC" }, "geometry": { "type": "Point", "coordinates": [ -80.24, 36.1 ] } },
{ "type": "Feature", "properties": { "NAME": "Memphis", "POP_2010": 646889.0, "STATE": "TN" }, "geometry": { "type": "Point", "coordinates": [ -90.05, 35.15 ] } },
{ "type": "Feature", "properties": { "NAME": "Little Rock", "POP_2010": 193524.0, "STATE": "AR" }, "geometry": { "type": "Point", "coordinates": [ -92.29, 34.75 ] } },
{ "type": "Feature", "properties": { "NAME": "Wilmington", "POP_2010": 106476.0, "STATE": "NC" }, "geometry": { "type": "Point", "coordinates": [ -77.94, 34.23 ] } },
{ "type": "Feature", "properties": { "NAME": "Shreveport", "POP_2010": 199311.0, "STATE": "LA" }, "geometry": { "type": "Point", "coordinates": [ -93.77, 32.51 ] } },
{ "type": "Feature", "properties": { "NAME": "Savannah", "POP_2010": 136286.0, "STATE": "GA" }, "geometry": { "type": "Point", "coordinates": [ -81.1, 32.08 ] } },
{ "type": "Feature", "properties": { "NAME": "Tallahassee", "POP_2010": 181376.0, "STATE": "FL" }, "geometry": { "type": "Point", "coordinates": [ -84.28, 30.44 ] } },
{ "type": "Feature", "properties": { "NAME": "Saint Petersburg", "POP_2010": 244769.0, "STATE": "FL" }, "geometry": { "type": "Point", "coordinates": [ -82.68, 27.77 ] } },
{ "type": "Feature", "properties": { "NAME": "Tampa", "POP_2010": 335709.0, "STATE": "FL" }, "geometry": { "type": "Point", "coordinates": [ -82.46, 27.95 ] } },
{ "type": "Feature", "properties": { "NAME": "Cary", "POP_2010": 135234.0, "STATE": "NC" }, "geometry": { "type": "Point", "coordinates": [ -78.78, 35.79 ] } },
{ "type": "Feature", "properties": { "NAME": "Bellevue", "POP_2010": 122363.0, "STATE": "WA" }, "geometry": { "type": "Point", "coordinates": [ -122.2, 47.61 ] } },
{ "type": "Feature", "properties": { "NAME": "Billings", "POP_2010": 104170.0, "STATE": "MT" }, "geometry": { "type": "Point", "coordinates": [ -108.5, 45.78 ] } },
{ "type": "Feature", "properties": { "NAME": "Boise City", "POP_2010": 205671.0, "STATE": "ID" }, "geometry": { "type": "Point", "coordinates": [ -116.23, 43.6 ] } },
{ "type": "Feature", "properties": { "NAME": "Arvada", "POP_2010": 106433.0, "STATE": "CO" }, "geometry": { "type": "Point", "coordinates": [ -105.09, 39.8 ] } },
{ "type": "Feature", "properties": { "NAME": "Denver", "POP_2010": 600158.0, "STATE": "CO" }, "geometry": { "type": "Point", "coordinates": [ -104.98, 39.74 ] } },
{ "type": "Feature", "properties": { "NAME": "Centennial", "POP_2010": 100377.0, "STATE": "CO" }, "geometry": { "type": "Point", "coordinates": [ -104.88, 39.58 ] } },
{ "type": "Feature", "properties": { "NAME": "Aurora", "POP_2010": 325078.0, "STATE": "CO" }, "geometry": { "type": "Point", "coordinates": [ -104.83, 39.73 ] } },
{ "type": "Feature", "properties": { "NAME": "Colorado Springs", "POP_2010": 416427.0, "STATE": "CO" }, "geometry": { "type": "Point", "coordinates": [ -104.82, 38.83 ] } },
{ "type": "Feature", "properties": { "NAME": "Antioch", "POP_2010": 102372.0, "STATE": "CA" }, "geometry": { "type": "Point", "coordinates": [ -121.81, 38.0 ] } },
{ "type": "Feature", "properties": { "NAME": "Concord", "POP_2010": 122067.0, "STATE": "CA" }, "geometry": { "type": "Point", "coordinates": [ -122.03, 37.98 ] } },
{ "type": "Feature", "properties": { "NAME": "Berkeley", "POP_2010": 112580.0, "STATE": "CA" }, "geometry": { "type": "Point", "coordinates": [ -122.27, 37.87 ] } },
{ "type": "Feature", "properties": { "NAME": "Daly City", "POP_2010": 101123.0, "STATE": "CA" }, "geometry": { "type": "Point", "coordinates": [ -122.46, 37.71 ] } },
{ "type": "Feature", "properties": { "NAME": "Bakersfield", "POP_2010": 347483.0, "STATE": "CA" }, "geometry": { "type": "Point", "coordinates": [ -119.02, 35.37 ] } },
{ "type": "Feature", "properties": { "NAME": "Amarillo", "POP_2010": 190695.0, "STATE": "TX" }, "geometry": { "type": "Point", "coordinates": [ -101.83, 35.22 ] } },
{ "type": "Feature", "properties": { "NAME": "Albuquerque", "POP_2010": 545852.0, "STATE": "NM" }, "geometry": { "type": "Point", "coordinates": [ -106.65, 35.08 ] } },
{ "type": "Feature", "properties": { "NAME": "East Los Angeles", "POP_2010": 126496.0, "STATE": "CA" }, "geometry": { "type": "Point", "coordinates": [ -118.17, 34.02 ] } },
{ "type": "Feature", "properties": { "NAME": "Burbank", "POP_2010": 103340.0, "STATE": "CA" }, "geometry": { "type": "Point", "coordinates": [ -118.31, 34.18 ] } },
{ "type": "Feature", "properties": { "NAME": "Inglewood", "POP_2010": 109673.0, "STATE": "CA" }, "geometry": { "type": "Point", "coordinates": [ -118.35, 33.96 ] } },
{ "type": "Feature", "properties": { "NAME": "Downey", "POP_2010": 111772.0, "STATE": "CA" }, "geometry": { "type": "Point", "coordinates": [ -118.13, 33.94 ] } },
{ "type": "Feature", "properties": { "NAME": "Corona", "POP_2010": 152374.0, "STATE": "CA" }, "geometry": { "type": "Point", "coordinates": [ -117.57, 33.88 ] } },
{ "type": "Feature", "properties": { "NAME": "Chandler", "POP_2010": 236123.0, "STATE": "AZ" }, "geometry": { "type": "Point", "coordinates": [ -111.84, 33.31 ] } },
{ "type": "Feature", "properties": { "NAME": "Anaheim", "POP_2010": 336265.0, "STATE": "CA" }, "geometry": { "type": "Point", "coordinates": [ -117.91, 33.84 ] } },
{ "type": "Feature", "properties": { "NAME": "Irvine", "POP_2010": 212375.0, "STATE": "CA" }, "geometry": { "type": "Point", "coordinates": [ -117.82, 33.67 ] } },
{ "type": "Feature", "properties": { "NAME": "Costa Mesa", "POP_2010": 109960.0, "STATE": "CA" }, "geometry": { "type": "Point", "coordinates": [ -117.92, 33.64 ] } },
{ "type": "Feature", "properties": { "NAME": "Chula Vista", "POP_2010": 243916.0, "STATE": "CA" }, "geometry": { "type": "Point", "coordinates": [ -117.08, 32.64 ] } },
{ "type": "Feature", "properties": { "NAME": "Carlsbad", "POP_2010": 105328.0, "STATE": "CA" }, "geometry": { "type": "Point", "coordinates": [ -117.35, 33.16 ] } },
{ "type": "Feature", "properties": { "NAME": "Denton", "POP_2010": 113383.0, "STATE": "TX" }, "geometry": { "type": "Point", "coordinates": [ -97.13, 33.21 ] } },
{ "type": "Feature", "properties": { "NAME": "Arlington", "POP_2010": 365438.0, "STATE": "TX" }, "geometry": { "type": "Point", "coordinates": [ -97.11, 32.74 ] } },
{ "type": "Feature", "properties": { "NAME": "Carrollton", "POP_2010": 119097.0, "STATE": "TX" }, "geometry": { "type": "Point", "coordinates": [ -96.89, 32.95 ] } },
{ "type": "Feature", "properties": { "NAME": "Irving", "POP_2010": 216290.0, "STATE": "TX" }, "geometry": { "type": "Point", "coordinates": [ -96.95, 32.81 ] } },
{ "type": "Feature", "properties": { "NAME": "Dallas", "POP_2010": 1197816.0, "STATE": "TX" }, "geometry": { "type": "Point", "coordinates": [ -96.81, 32.78 ] } },
{ "type": "Feature", "properties": { "NAME": "Abilene", "POP_2010": 117063.0, "STATE": "TX" }, "geometry": { "type": "Point", "coordinates": [ -99.73, 32.45 ] } },
{ "type": "Feature", "properties": { "NAME": "Austin", "POP_2010": 790390.0, "STATE": "TX" }, "geometry": { "type": "Point", "coordinates": [ -97.74, 30.27 ] } },
{ "type": "Feature", "properties": { "NAME": "Beaumont", "POP_2010": 118296.0, "STATE": "TX" }, "geometry": { "type": "Point", "coordinates": [ -94.1, 30.09 ] } },
{ "type": "Feature", "properties": { "NAME": "Corpus Christi", "POP_2010": 305215.0, "STATE": "TX" }, "geometry": { "type": "Point", "coordinates": [ -97.4, 27.8 ] } },
{ "type": "Feature", "properties": { "NAME": "Brownsville", "POP_2010": 175023.0, "STATE": "TX" }, "geometry": { "type": "Point", "coordinates": [ -97.5, 25.9 ] } },
{ "type": "Feature", "properties": { "NAME": "Everett", "POP_2010": 103019.0, "STATE": "WA" }, "geometry": { "type": "Point", "coordinates": [ -122.2, 47.98 ] } },
{ "type": "Feature", "properties": { "NAME": "Gresham", "POP_2010": 105594.0, "STATE": "OR" }, "geometry": { "type": "Point", "coordinates": [ -122.43, 45.5 ] } },
{ "type": "Feature", "properties": { "NAME": "Portland", "POP_2010": 583776.0, "STATE": "OR" }, "geometry": { "type": "Point", "coordinates": [ -122.68, 45.52 ] } },
{ "type": "Feature", "properties": { "NAME": "Eugene", "POP_2010": 156185.0, "STATE": "OR" }, "geometry": { "type": "Point", "coordinates": [ -123.09, 44.05 ] } },
{ "type": "Feature", "properties": { "NAME": "Reno", "POP_2010": 225221.0, "STATE": "NV" }, "geometry": { "type": "Point", "coordinates": [ -119.81, 39.53 ] } },
{ "type": "Feature", "properties": { "NAME": "Fort Collins", "POP_2010": 143986.0, "STATE": "CO" }, "geometry": { "type": "Point", "coordinates": [ -105.08, 40.59 ] } },
{ "type": "Feature", "properties": { "NAME": "Provo", "POP_2010": 112488.0, "STATE": "UT" }, "geometry": { "type": "Point", "coordinates": [ -111.66, 40.23 ] } },
{ "type": "Feature", "properties": { "NAME": "Lakewood", "POP_2010": 142980.0, "STATE": "CO" }, "geometry": { "type": "Point", "coordinates": [ -105.08, 39.7 ] } },
{ "type": "Feature", "properties": { "NAME": "Roseville", "POP_2010": 118788.0, "STATE": "CA" }, "geometry": { "type": "Point", "coordinates": [ -121.29, 38.75 ] } },
{ "type": "Feature", "properties": { "NAME": "Elk Grove", "POP_2010": 153015.0, "STATE": "CA" }, "geometry": { "type": "Point", "coordinates": [ -121.37, 38.41 ] } },
{ "type": "Feature", "properties": { "NAME": "Fairfield", "POP_2010": 105321.0, "STATE": "CA" }, "geometry": { "type": "Point", "coordinates": [ -122.04, 38.25 ] } },
{ "type": "Feature", "properties": { "NAME": "Pueblo", "POP_2010": 106595.0, "STATE": "CO" }, "geometry": { "type": "Point", "coordinates": [ -104.61, 38.25 ] } },
{ "type": "Feature", "properties": { "NAME": "Richmond", "POP_2010": 103701.0, "STATE": "CA" }, "geometry": { "type": "Point", "coordinates": [ -122.35, 37.94 ] } },
{ "type": "Feature", "properties": { "NAME": "Modesto", "POP_2010": 201165.0, "STATE": "CA" }, "geometry": { "type": "Point", "coordinates": [ -121.0, 37.64 ] } },
{ "type": "Feature", "properties": { "NAME": "Fremont", "POP_2010": 214089.0, "STATE": "CA" }, "geometry": { "type": "Point", "coordinates": [ -121.99, 37.55 ] } },
{ "type": "Feature", "properties": { "NAME": "Hayward", "POP_2010": 144186.0, "STATE": "CA" }, "geometry": { "type": "Point", "coordinates": [ -122.08, 37.67 ] } },
{ "type": "Feature", "properties": { "NAME": "Oakland", "POP_2010": 390724.0, "STATE": "CA" }, "geometry": { "type": "Point", "coordinates": [ -122.27, 37.8 ] } },
{ "type": "Feature", "properties": { "NAME": "Fresno", "POP_2010": 494665.0, "STATE": "CA" }, "geometry": { "type": "Point", "coordinates": [ -119.77, 36.75 ] } },
{ "type": "Feature", "properties": { "NAME": "Henderson", "POP_2010": 257729.0, "STATE": "NV" }, "geometry": { "type": "Point", "coordinates": [ -114.98, 36.04 ] } },
{ "type": "Feature", "properties": { "NAME": "North Las Vegas", "POP_2010": 216961.0, "STATE": "NV" }, "geometry": { "type": "Point", "coordinates": [ -115.12, 36.2 ] } },
{ "type": "Feature", "properties": { "NAME": "Las Vegas", "POP_2010": 583756.0, "STATE": "NV" }, "geometry": { "type": "Point", "coordinates": [ -115.14, 36.17 ] } },
{ "type": "Feature", "properties": { "NAME": "Fontana", "POP_2010": 196069.0, "STATE": "CA" }, "geometry": { "type": "Point", "coordinates": [ -117.44, 34.09 ] } },
{ "type": "Feature", "properties": { "NAME": "Ontario", "POP_2010": 163924.0, "STATE": "CA" }, "geometry": { "type": "Point", "coordinates": [ -117.65, 34.06 ] } },
{ "type": "Feature", "properties": { "NAME": "Rancho Cucamonga", "POP_2010": 165269.0, "STATE": "CA" }, "geometry": { "type": "Point", "coordinates": [ -117.59, 34.11 ] } },
{ "type": "Feature", "properties": { "NAME": "Oklahoma City", "POP_2010": 579999.0, "STATE": "OK" }, "geometry": { "type": "Point", "coordinates": [ -97.54, 35.47 ] } },
{ "type": "Feature", "properties": { "NAME": "Norman", "POP_2010": 110925.0, "STATE": "OK" }, "geometry": { "type": "Point", "coordinates": [ -97.46, 35.23 ] } },
{ "type": "Feature", "properties": { "NAME": "Oxnard", "POP_2010": 197899.0, "STATE": "CA" }, "geometry": { "type": "Point", "coordinates": [ -119.18, 34.2 ] } },
{ "type": "Feature", "properties": { "NAME": "El Monte", "POP_2010": 113475.0, "STATE": "CA" }, "geometry": { "type": "Point", "coordinates": [ -118.03, 34.07 ] } },
{ "type": "Feature", "properties": { "NAME": "Glendale", "POP_2010": 191719.0, "STATE": "CA" }, "geometry": { "type": "Point", "coordinates": [ -118.26, 34.14 ] } },
{ "type": "Feature", "properties": { "NAME": "Long Beach", "POP_2010": 462257.0, "STATE": "CA" }, "geometry": { "type": "Point", "coordinates": [ -118.19, 33.77 ] } },
{ "type": "Feature", "properties": { "NAME": "Los Angeles", "POP_2010": 3792621.0, "STATE": "CA" }, "geometry": { "type": "Point", "coordinates": [ -118.24, 34.05 ] } },
{ "type": "Feature", "properties": { "NAME": "Norwalk", "POP_2010": 105549.0, "STATE": "CA" }, "geometry": { "type": "Point", "coordinates": [ -118.08, 33.9 ] } },
{ "type": "Feature", "properties": { "NAME": "Palmdale", "POP_2010": 152750.0, "STATE": "CA" }, "geometry": { "type": "Point", "coordinates": [ -118.12, 34.58 ] } },
{ "type": "Feature", "properties": { "NAME": "Pasadena", "POP_2010": 137122.0, "STATE": "CA" }, "geometry": { "type": "Point", "coordinates": [ -118.14, 34.15 ] } },
{ "type": "Feature", "properties": { "NAME": "Pomona", "POP_2010": 149058.0, "STATE": "CA" }, "geometry": { "type": "Point", "coordinates": [ -117.75, 34.06 ] } },
{ "type": "Feature", "properties": { "NAME": "Lancaster", "POP_2010": 156633.0, "STATE": "CA" }, "geometry": { "type": "Point", "coordinates": [ -118.14, 34.7 ] } },
{ "type": "Feature", "properties": { "NAME": "Riverside", "POP_2010": 303871.0, "STATE": "CA" }, "geometry": { "type": "Point", "coordinates": [ -117.4, 33.95 ] } },
{ "type": "Feature", "properties": { "NAME": "Moreno Valley", "POP_2010": 193365.0, "STATE": "CA" }, "geometry": { "type": "Point", "coordinates": [ -117.23, 33.94 ] } },
{ "type": "Feature", "properties": { "NAME": "Murrieta", "POP_2010": 103466.0, "STATE": "CA" }, "geometry": { "type": "Point", "coordinates": [ -117.21, 33.55 ] } },
{ "type": "Feature", "properties": { "NAME": "Glendale", "POP_2010": 226721.0, "STATE": "AZ" }, "geometry": { "type": "Point", "coordinates": [ -112.19, 33.54 ] } },
{ "type": "Feature", "properties": { "NAME": "Mesa", "POP_2010": 439041.0, "STATE": "AZ" }, "geometry": { "type": "Point", "coordinates": [ -111.82, 33.42 ] } },
{ "type": "Feature", "properties": { "NAME": "Peoria", "POP_2010": 154065.0, "STATE": "AZ" }, "geometry": { "type": "Point", "coordinates": [ -112.24, 33.58 ] } },
{ "type": "Feature", "properties": { "NAME": "Phoenix", "POP_2010": 1445632.0, "STATE": "AZ" }, "geometry": { "type": "Point", "coordinates": [ -112.07, 33.45 ] } },
{ "type": "Feature", "properties": { "NAME": "Fullerton", "POP_2010": 135161.0, "STATE": "CA" }, "geometry": { "type": "Point", "coordinates": [ -117.93, 33.87 ] } },
{ "type": "Feature", "properties": { "NAME": "Garden Grove", "POP_2010": 170883.0, "STATE": "CA" }, "geometry": { "type": "Point", "coordinates": [ -117.94, 33.77 ] } },
{ "type": "Feature", "properties": { "NAME": "Huntington Beach", "POP_2010": 189992.0, "STATE": "CA" }, "geometry": { "type": "Point", "coordinates": [ -118.0, 33.66 ] } },
{ "type": "Feature", "properties": { "NAME": "Orange", "POP_2010": 136416.0, "STATE": "CA" }, "geometry": { "type": "Point", "coordinates": [ -117.85, 33.79 ] } },
{ "type": "Feature", "properties": { "NAME": "Lubbock", "POP_2010": 229573.0, "STATE": "TX" }, "geometry": { "type": "Point", "coordinates": [ -101.86, 33.58 ] } },
{ "type": "Feature", "properties": { "NAME": "Escondido", "POP_2010": 143911.0, "STATE": "CA" }, "geometry": { "type": "Point", "coordinates": [ -117.09, 33.12 ] } },
{ "type": "Feature", "properties": { "NAME": "Oceanside", "POP_2010": 167086.0, "STATE": "CA" }, "geometry": { "type": "Point", "coordinates": [ -117.38, 33.2 ] } },
{ "type": "Feature", "properties": { "NAME": "Frisco", "POP_2010": 116989.0, "STATE": "TX" }, "geometry": { "type": "Point", "coordinates": [ -96.82, 33.15 ] } },
{ "type": "Feature", "properties": { "NAME": "McKinney", "POP_2010": 131117.0, "STATE": "TX" }, "geometry": { "type": "Point", "coordinates": [ -96.62, 33.2 ] } },
{ "type": "Feature", "properties": { "NAME": "Plano", "POP_2010": 259841.0, "STATE": "TX" }, "geometry": { "type": "Point", "coordinates": [ -96.7, 33.02 ] } },
{ "type": "Feature", "properties": { "NAME": "Fort Worth", "POP_2010": 741206.0, "STATE": "TX" }, "geometry": { "type": "Point", "coordinates": [ -97.32, 32.73 ] } },
{ "type": "Feature", "properties": { "NAME": "Garland", "POP_2010": 226876.0, "STATE": "TX" }, "geometry": { "type": "Point", "coordinates": [ -96.64, 32.91 ] } },
{ "type": "Feature", "properties": { "NAME": "Grand Prairie", "POP_2010": 175396.0, "STATE": "TX" }, "geometry": { "type": "Point", "coordinates": [ -97.0, 32.75 ] } },
{ "type": "Feature", "properties": { "NAME": "Mesquite", "POP_2010": 139824.0, "STATE": "TX" }, "geometry": { "type": "Point", "coordinates": [ -96.6, 32.77 ] } },
{ "type": "Feature", "properties": { "NAME": "Midland", "POP_2010": 111147.0, "STATE": "TX" }, "geometry": { "type": "Point", "coordinates": [ -102.08, 32.0 ] } },
{ "type": "Feature", "properties": { "NAME": "El Paso", "POP_2010": 649121.0, "STATE": "TX" }, "geometry": { "type": "Point", "coordinates": [ -106.49, 31.76 ] } },
{ "type": "Feature", "properties": { "NAME": "Killeen", "POP_2010": 127921.0, "STATE": "TX" }, "geometry": { "type": "Point", "coordinates": [ -97.73, 31.12 ] } },
{ "type": "Feature", "properties": { "NAME": "Houston", "POP_2010": 2099451.0, "STATE": "TX" }, "geometry": { "type": "Point", "coordinates": [ -95.36, 29.76 ] } },
{ "type": "Feature", "properties": { "NAME": "Pasadena", "POP_2010": 149043.0, "STATE": "TX" }, "geometry": { "type": "Point", "coordinates": [ -95.21, 29.69 ] } },
{ "type": "Feature", "properties": { "NAME": "Laredo", "POP_2010": 236091.0, "STATE": "TX" }, "geometry": { "type": "Point", "coordinates": [ -99.51, 27.51 ] } },
{ "type": "Feature", "properties": { "NAME": "McAllen", "POP_2010": 129877.0, "STATE": "TX" }, "geometry": { "type": "Point", "coordinates": [ -98.23, 26.2 ] } },
{ "type": "Feature", "properties": { "NAME": "Spokane", "POP_2010": 208916.0, "STATE": "WA" }, "geometry": { "type": "Point", "coordinates": [ -117.43, 47.66 ] } },
{ "type": "Feature", "properties": { "NAME": "Seattle", "POP_2010": 608660.0, "STATE": "WA" }, "geometry": { "type": "Point", "coordinates": [ -122.33, 47.61 ] } },
{ "type": "Feature", "properties": { "NAME": "Tacoma", "POP_2010": 198397.0, "STATE": "WA" }, "geometry": { "type": "Point", "coordinates": [ -122.44, 47.25 ] } },
{ "type": "Feature", "properties": { "NAME": "Vancouver", "POP_2010": 161791.0, "STATE": "WA" }, "geometry": { "type": "Point", "coordinates": [ -122.66, 45.64 ] } },
{ "type": "Feature", "properties": { "NAME": "Salem", "POP_2010": 154637.0, "STATE": "OR" }, "geometry": { "type": "Point", "coordinates": [ -123.04, 44.94 ] } },
{ "type": "Feature", "properties": { "NAME": "Salt Lake City", "POP_2010": 186440.0, "STATE": "UT" }, "geometry": { "type": "Point", "coordinates": [ -111.89, 40.76 ] } },
{ "type": "Feature", "properties": { "NAME": "West Jordan", "POP_2010": 103712.0, "STATE": "UT" }, "geometry": { "type": "Point", "coordinates": [ -111.94, 40.61 ] } },
{ "type": "Feature", "properties": { "NAME": "West Valley City", "POP_2010": 129480.0, "STATE": "UT" }, "geometry": { "type": "Point", "coordinates": [ -112.0, 40.69 ] } },
{ "type": "Feature", "properties": { "NAME": "Thornton", "POP_2010": 118772.0, "STATE": "CO" }, "geometry": { "type": "Point", "coordinates": [ -104.97, 39.87 ] } },
{ "type": "Feature", "properties": { "NAME": "Westminster", "POP_2010": 106114.0, "STATE": "CO" }, "geometry": { "type": "Point", "coordinates": [ -105.04, 39.84 ] } },
{ "type": "Feature", "properties": { "NAME": "Santa Rosa", "POP_2010": 167815.0, "STATE": "CA" }, "geometry": { "type": "Point", "coordinates": [ -122.71, 38.44 ] } },
{ "type": "Feature", "properties": { "NAME": "Sacramento", "POP_2010": 466488.0, "STATE": "CA" }, "geometry": { "type": "Point", "coordinates": [ -121.49, 38.58 ] } },
{ "type": "Feature", "properties": { "NAME": "Vallejo", "POP_2010": 115942.0, "STATE": "CA" }, "geometry": { "type": "Point", "coordinates": [ -122.26, 38.1 ] } },
{ "type": "Feature", "properties": { "NAME": "Stockton", "POP_2010": 291707.0, "STATE": "CA" }, "geometry": { "type": "Point", "coordinates": [ -121.29, 37.96 ] } },
{ "type": "Feature", "properties": { "NAME": "San Francisco", "POP_2010": 805235.0, "STATE": "CA" }, "geometry": { "type": "Point", "coordinates": [ -122.42, 37.77 ] } },
{ "type": "Feature", "properties": { "NAME": "San Jose", "POP_2010": 945942.0, "STATE": "CA" }, "geometry": { "type": "Point", "coordinates": [ -121.89, 37.34 ] } },
{ "type": "Feature", "properties": { "NAME": "Santa Clara", "POP_2010": 116468.0, "STATE": "CA" }, "geometry": { "type": "Point", "coordinates": [ -121.96, 37.35 ] } },
{ "type": "Feature", "properties": { "NAME": "Sunnyvale", "POP_2010": 140081.0, "STATE": "CA" }, "geometry": { "type": "Point", "coordinates": [ -122.04, 37.37 ] } },
{ "type": "Feature", "properties": { "NAME": "Salinas", "POP_2010": 150441.0, "STATE": "CA" }, "geometry": { "type": "Point", "coordinates": [ -121.66, 36.68 ] } },
{ "type": "Feature", "properties": { "NAME": "Visalia", "POP_2010": 124442.0, "STATE": "CA" }, "geometry": { "type": "Point", "coordinates": [ -119.29, 36.33 ] } },
{ "type": "Feature", "properties": { "NAME": "Tulsa", "POP_2010": 391906.0, "STATE": "OK" }, "geometry": { "type": "Point", "coordinates": [ -96.02, 36.16 ] } },
{ "type": "Feature", "properties": { "NAME": "San Bernardino", "POP_2010": 209924.0, "STATE": "CA" }, "geometry": { "type": "Point", "coordinates": [ -117.29, 34.11 ] } },
{ "type": "Feature", "properties": { "NAME": "Victorville", "POP_2010": 115903.0, "STATE": "CA" }, "geometry": { "type": "Point", "coordinates": [ -117.29, 34.54 ] } },
{ "type": "Feature", "properties": { "NAME": "San Buenaventura", "POP_2010": 106433.0, "STATE": "CA" }, "geometry": { "type": "Point", "coordinates": [ -119.25, 34.27 ] } },
{ "type": "Feature", "properties": { "NAME": "Simi Valley", "POP_2010": 124237.0, "STATE": "CA" }, "geometry": { "type": "Point", "coordinates": [ -118.78, 34.27 ] } },
{ "type": "Feature", "properties": { "NAME": "Thousand Oaks", "POP_2010": 126683.0, "STATE": "CA" }, "geometry": { "type": "Point", "coordinates": [ -118.84, 34.17 ] } },
{ "type": "Feature", "properties": { "NAME": "Santa Clarita", "POP_2010": 176320.0, "STATE": "CA" }, "geometry": { "type": "Point", "coordinates": [ -118.54, 34.39 ] } },
{ "type": "Feature", "properties": { "NAME": "Torrance", "POP_2010": 145438.0, "STATE": "CA" }, "geometry": { "type": "Point", "coordinates": [ -118.34, 33.84 ] } },
{ "type": "Feature", "properties": { "NAME": "West Covina", "POP_2010": 106098.0, "STATE": "CA" }, "geometry": { "type": "Point", "coordinates": [ -117.94, 34.07 ] } },
{ "type": "Feature", "properties": { "NAME": "Wichita Falls", "POP_2010": 104553.0, "STATE": "TX" }, "geometry": { "type": "Point", "coordinates": [ -98.49, 33.91 ] } },
{ "type": "Feature", "properties": { "NAME": "Temecula", "POP_2010": 100097.0, "STATE": "CA" }, "geometry": { "type": "Point", "coordinates": [ -117.15, 33.49 ] } },
{ "type": "Feature", "properties": { "NAME": "Scottsdale", "POP_2010": 217385.0, "STATE": "AZ" }, "geometry": { "type": "Point", "coordinates": [ -111.9, 33.51 ] } },
{ "type": "Feature", "properties": { "NAME": "Surprise", "POP_2010": 117517.0, "STATE": "AZ" }, "geometry": { "type": "Point", "coordinates": [ -112.33, 33.63 ] } },
{ "type": "Feature", "properties": { "NAME": "Tempe", "POP_2010": 161719.0, "STATE": "AZ" }, "geometry": { "type": "Point", "coordinates": [ -111.91, 33.41 ] } },
{ "type": "Feature", "properties": { "NAME": "Gilbert", "POP_2010": 208453.0, "STATE": "AZ" }, "geometry": { "type": "Point", "coordinates": [ -111.79, 33.35 ] } },
{ "type": "Feature", "properties": { "NAME": "Santa Ana", "POP_2010": 324528.0, "STATE": "CA" }, "geometry": { "type": "Point", "coordinates": [ -117.87, 33.75 ] } },
{ "type": "Feature", "properties": { "NAME": "San Diego", "POP_2010": 1307402.0, "STATE": "CA" }, "geometry": { "type": "Point", "coordinates": [ -117.16, 32.72 ] } },
{ "type": "Feature", "properties": { "NAME": "Tucson", "POP_2010": 520116.0, "STATE": "AZ" }, "geometry": { "type": "Point", "coordinates": [ -110.93, 32.22 ] } },
{ "type": "Feature", "properties": { "NAME": "Waco", "POP_2010": 124805.0, "STATE": "TX" }, "geometry": { "type": "Point", "coordinates": [ -97.15, 31.55 ] } },
{ "type": "Feature", "properties": { "NAME": "San Antonio", "POP_2010": 1327407.0, "STATE": "TX" }, "geometry": { "type": "Point", "coordinates": [ -98.49, 29.42 ] } },
{ "type": "Feature", "properties": { "NAME": "Anchorage", "POP_2010": 291826.0, "STATE": "AK" }, "geometry": { "type": "Point", "coordinates": [ -149.9, 61.22 ] } },
{ "type": "Feature", "properties": { "NAME": "Carolina", "POP_2010": 157832.0, "STATE": "PR" }, "geometry": { "type": "Point", "coordinates": [ -65.96, 18.38 ] } },
{ "type": "Feature", "properties": { "NAME": "Bayam√≥n", "POP_2010": 185996.0, "STATE": "PR" }, "geometry": { "type": "Point", "coordinates": [ -66.16, 18.4 ] } },
{ "type": "Feature", "properties": { "NAME": "San Juan", "POP_2010": 381931.0, "STATE": "PR" }, "geometry": { "type": "Point", "coordinates": [ -66.11, 18.47 ] } },
{ "type": "Feature", "properties": { "NAME": "Ponce", "POP_2010": 132502.0, "STATE": "PR" }, "geometry": { "type": "Point", "coordinates": [ -66.61, 18.01 ] } },
{ "type": "Feature", "properties": { "NAME": "Boise", "POP_2010": 205671.0, "STATE": "ID" }, "geometry": { "type": "Point", "coordinates": [ -116.2, 43.61 ] } },
{ "type": "Feature", "properties": { "NAME": "Indianapolis", "POP_2010": 820445.0, "STATE": "IN" }, "geometry": { "type": "Point", "coordinates": [ -86.16, 39.77 ] } },
{ "type": "Feature", "properties": { "NAME": "Louisville", "POP_2010": 597337.0, "STATE": "KY" }, "geometry": { "type": "Point", "coordinates": [ -85.76, 38.25 ] } },
{ "type": "Feature", "properties": { "NAME": "Nashville", "POP_2010": 601222.0, "STATE": "TN" }, "geometry": { "type": "Point", "coordinates": [ -86.78, 36.17 ] } },
{ "type": "Feature", "properties": { "NAME": "The Bronx", "POP_2010": 1408473.0, "STATE": "NY" }, "geometry": { "type": "Point", "coordinates": [ -73.87, 40.85 ] } },
{ "type": "Feature", "properties": { "NAME": "Manhattan", "POP_2010": 1619090.0, "STATE": "NY" }, "geometry": { "type": "Point", "coordinates": [ -73.97, 40.78 ] } },
{ "type": "Feature", "properties": { "NAME": "Brooklyn", "POP_2010": 2565635.0, "STATE": "NY" }, "geometry": { "type": "Point", "coordinates": [ -73.95, 40.65 ] } },
{ "type": "Feature", "properties": { "NAME": "Queens", "POP_2010": 2272771.0, "STATE": "NY" }, "geometry": { "type": "Point", "coordinates": [ -73.8, 40.75 ] } },
{ "type": "Feature", "properties": { "NAME": "Staten Island", "POP_2010": 470728.0, "STATE": "NY" }, "geometry": { "type": "Point", "coordinates": [ -74.15, 40.58 ] } }
]
}
