{
"type": "FeatureCollection",
"crs": { "type": "name", "properties": { "name": "urn:ogc:def:crs:OGC:1.3:CRS84" } },
                                                                                
"features": [
{ "type": "Feature", "properties": { "id": 1, "stopType": "primary", "Name": "North Street", "Caption": "Points of Interest: State Capital, State Library of Louisiana, Capital Park Museum, St. Joseph Cathedral", "Icon_color": "R", "URL": null, "Thumb_URL": "https:\/\/upload.wikimedia.org\/wikipedia\/commons\/7\/7d\/Downtown_Baton_Rouge_from_Louisiana_State_Capitol.jpg" }, "geometry": { "type": "Point", "coordinates": [ -91.187217427230721, 30.452538158910269 ] } },
{ "type": "Feature", "properties": { "id": 2, "stopType": "primary", "Name": "Florida Street", "Caption": "Points of Interest:Arts Council of Baton Rouge,  St. James  Episcopal Church", "Icon_color": "R", "URL": null, "Thumb_URL": null }, "geometry": { "type": "Point", "coordinates": [ -91.187080098129172, 30.449426289275415 ] } },
{ "type": "Feature", "properties": { "id": 3, "stopType": "primary", "Name": "North Boulevard", "Caption": "Points of Interest:  Louisianna Old State Capital, Shaw Center for the Arts, River Center Branch Library", "Icon_color": "R", "URL": null, "Thumb_URL": null }, "geometry": { "type": "Point", "coordinates": [ -91.186982005913777, 30.447303734240066 ] } },
{ "type": "Feature", "properties": { "id": 4, "stopType": "primary", "Name": "Spain Street", "Caption": "Points of Interest: Baton Rouge River Center", "Icon_color": "R", "URL": null, "Thumb_URL": null }, "geometry": { "type": "Point", "coordinates": [ -91.186570018609146, 30.443861883415096 ] } },
{ "type": "Feature", "properties": { "id": 5, "stopType": "primary", "Name": "Europe Street", "Caption": "Points of Interest: Belle of Baton Rouge Casino", "Icon_color": "R", "URL": null, "Thumb_URL": null }, "geometry": { "type": "Point", "coordinates": [ -91.186962387470686, 30.441823776871686 ] } },
{ "type": "Feature", "properties": { "id": 6, "stopType": "primary", "Name": "Terrace Avenue", "Caption": "Points of Interest: Louisiana Sheriffs' Association", "Icon_color": "R", "URL": null, "Thumb_URL": null }, "geometry": { "type": "Point", "coordinates": [ -91.187266473338369, 30.43705393362136 ] } },
{ "type": "Feature", "properties": { "id": 7, "stopType": "alternate\/future", "Name": "Oklahoma Street", "Caption": null, "Icon_color": "R", "URL": null, "Thumb_URL": null }, "geometry": { "type": "Point", "coordinates": [ -91.187364565553764, 30.434948024323393 ] } },
{ "type": "Feature", "properties": { "id": 8, "stopType": "primary", "Name": "Van Buren Street", "Caption": "Point of Interest: Magnolia Mound Plantation", "Icon_color": "R", "URL": null, "Thumb_URL": null }, "geometry": { "type": "Point", "coordinates": [ -91.187845217409148, 30.428968347241845 ] } },
{ "type": "Feature", "properties": { "id": 9, "stopType": "primary", "Name": "West McKinley Street", "Caption": null, "Icon_color": "R", "URL": null, "Thumb_URL": null }, "geometry": { "type": "Point", "coordinates": [ -91.187668651421447, 30.423622696166728 ] } },
{ "type": "Feature", "properties": { "id": 10, "stopType": "primary", "Name": "Aster Street", "Caption": null, "Icon_color": "R", "URL": null, "Thumb_URL": null }, "geometry": { "type": "Point", "coordinates": [ -91.18747246699067, 30.419613265640116 ] } },
{ "type": "Feature", "properties": { "id": 11, "stopType": "alternate\/future", "Name": "Galvez Court", "Caption": null, "Icon_color": "R", "URL": null, "Thumb_URL": null }, "geometry": { "type": "Point", "coordinates": [ -91.187335137889121, 30.415299137413424 ] } },
{ "type": "Feature", "properties": { "id": 12, "stopType": "primary", "Name": "North Stadium Road", "Caption": "Points of Interest: LSU: Mike the TIger's Habitat, LSU Tiger Stadium, Pete Maravich Assembly Center", "Icon_color": "R", "URL": null, "Thumb_URL": null }, "geometry": { "type": "Point", "coordinates": [ -91.186687729267561, 30.412845920624626 ] } }
]
}
